name,line,lon,lat
金安桥, S1线, 116.163167, 39.923620
四道桥, S1线, 116.134010, 39.916030
桥户营, S1线, 116.125809, 39.912383
上岸, S1线, 116.122225, 39.905138
栗园庄, S1线, 116.123254, 39.895780
小园, S1线, 116.114443, 39.890465
石厂, S1线, 116.100334, 39.889378
苹果园, 1号线, 116.177388, 39.926727
古城, 1号线, 116.190337, 39.907450
八角游乐园, 1号线, 116.212684, 39.907442
八宝山, 1号线, 116.235948, 39.907440
玉泉路, 1号线, 116.252888, 39.907433
五棵松, 1号线, 116.273987, 39.907456
万寿路, 1号线, 116.294765, 39.907474
公主坟, 1号线, 116.309919, 39.907469
军事博物馆, 1号线, 116.321459, 39.907422
木樨地, 1号线, 116.337583, 39.907379
南礼士路, 1号线, 116.352583, 39.907234
复兴门, 1号线, 116.356866, 39.907242
西单, 1号线, 116.374072, 39.907383
天安门西, 1号线, 116.391278, 39.907472
天安门东, 1号线, 116.401216, 39.907780
王府井, 1号线, 116.411571, 39.908069
东单, 1号线, 116.418480, 39.908325
建国门, 1号线, 116.435806, 39.908501
永安里, 1号线, 116.450497, 39.908454
国贸, 1号线, 116.461841, 39.909104
大望路, 1号线, 116.475783, 39.908287
四惠, 1号线, 116.495456, 39.908749
四惠东, 1号线, 116.515664, 39.908495
积水潭, 2号线, 116.373126, 39.948653
鼓楼大街, 2号线, 116.393776, 39.948972
安定门, 2号线, 116.408240, 39.949180
雍和宫, 2号线, 116.417069, 39.949336
东直门, 2号线, 116.435842, 39.941626
东四十条, 2号线, 116.434133, 39.933801
朝阳门, 2号线, 116.434584, 39.924499
建国门, 2号线, 116.435806, 39.908501
北京站, 2号线, 116.427287, 39.904983
崇文门, 2号线, 116.417093, 39.901063
前门, 2号线, 116.397937, 39.900192
和平门, 2号线, 116.384209, 39.900098
宣武门, 2号线, 116.374314, 39.899765
长椿街, 2号线, 116.363355, 39.899433
复兴门, 2号线, 116.356866, 39.907242
阜成门, 2号线, 116.356009, 39.923686
车公庄, 2号线, 116.354357, 39.932397
西直门, 2号线, 116.355426, 39.940474
天宫院, 4号线大兴线, 116.319932, 39.670342
生物医药基地, 4号线大兴线, 116.321662, 39.686510
义和庄, 4号线大兴线, 116.319079, 39.712387
黄村火车站, 4号线大兴线, 116.332611, 39.722966
黄村西大街, 4号线大兴线, 116.332631, 39.731769
清源路, 4号线大兴线, 116.332513, 39.742724
枣园, 4号线大兴线, 116.332204, 39.753458
高米店南, 4号线大兴线, 116.331605, 39.763489
高米店北, 4号线大兴线, 116.330787, 39.773547
西红门, 4号线大兴线, 116.328689, 39.789800
新宫, 4号线大兴线, 116.365549, 39.812592
公益西桥, 4号线大兴线, 116.370796, 39.836135
角门西, 4号线大兴线, 116.371154, 39.845850
马家堡, 4号线大兴线, 116.371361, 39.853109
北京南站, 4号线大兴线, 116.378963, 39.865029
陶然亭, 4号线大兴线, 116.374383, 39.878470
菜市口, 4号线大兴线, 116.374425, 39.889296
宣武门, 4号线大兴线, 116.374314, 39.899765
西单, 4号线大兴线, 116.374072, 39.907383
灵境胡同, 4号线大兴线, 116.373746, 39.915912
西四, 4号线大兴线, 116.373332, 39.924206
平安里, 4号线大兴线, 116.372883, 39.933949
新街口, 4号线大兴线, 116.367742, 39.940667
西直门, 4号线大兴线, 116.355426, 39.940474
动物园, 4号线大兴线, 116.339031, 39.938250
国家图书馆, 4号线大兴线, 116.325190, 39.943114
魏公村, 4号线大兴线, 116.323220, 39.957904
人民大学, 4号线大兴线, 116.321367, 39.966956
海淀黄庄, 4号线大兴线, 116.317564, 39.975996
中关村, 4号线大兴线, 116.316467, 39.983991
北京大学东门, 4号线大兴线, 116.315842, 39.992212
圆明园, 4号线大兴线, 116.310186, 39.999662
西苑, 4号线大兴线, 116.290908, 39.998258
北宫门, 4号线大兴线, 116.277647, 40.002373
安河桥北, 4号线大兴线, 116.269956, 40.012195
宋家庄, 5号线, 116.428368, 39.845849
刘家窑, 5号线, 116.422119, 39.857521
蒲黄榆, 5号线, 116.423720, 39.865621
天坛东门, 5号线, 116.420833, 39.882558
磁器口, 5号线, 116.419940, 39.893172
崇文门, 5号线, 116.417093, 39.901063
东单, 5号线, 116.418480, 39.908325
灯市口, 5号线, 116.417783, 39.917113
东四, 5号线, 116.417493, 39.924370
张自忠路, 5号线, 116.417156, 39.933592
北新桥, 5号线, 116.416884, 39.940782
雍和宫, 5号线, 116.417069, 39.949336
和平里北街, 5号线, 116.418504, 39.958734
和平西桥, 5号线, 116.417975, 39.968386
惠新西街南口, 5号线, 116.417537, 39.977121
惠新西街北口, 5号线, 116.417028, 39.987836
大屯路东, 5号线, 116.417377, 40.003841
北苑路北, 5号线, 116.418089, 40.030436
立水桥南, 5号线, 116.414496, 40.041956
立水桥, 5号线, 116.412350, 40.053032
天通苑南, 5号线, 116.412661, 40.066458
天通苑, 5号线, 116.412759, 40.075222
天通苑北, 5号线, 116.412888, 40.083668
潞城, 6号线, 116.747434, 39.902652
东夏园, 6号线, 116.733850, 39.903147
郝家府, 6号线, 116.717826, 39.903195
北运河东, 6号线, 116.707056, 39.903268
北运河西, 6号线, 116.688358, 39.903024
通州北关, 6号线, 116.661131, 39.917962
物资学院路, 6号线, 116.639316, 39.926801
草房, 6号线, 116.615574, 39.924477
常营, 6号线, 116.599722, 39.925696
黄渠, 6号线, 116.578266, 39.924201
褡裢坡, 6号线, 116.563961, 39.924021
青年路, 6号线, 116.517429, 39.923168
十里堡, 6号线, 116.502045, 39.923076
金台路, 6号线, 116.478115, 39.923556
呼家楼, 6号线, 116.461618, 39.923337
东大桥, 6号线, 116.451657, 39.923054
朝阳门, 6号线, 116.434584, 39.924499
东四, 6号线, 116.417493, 39.924370
南锣鼓巷, 6号线, 116.404192, 39.933848
北海北, 6号线, 116.386829, 39.933247
平安里, 6号线, 116.372883, 39.933949
车公庄, 6号线, 116.354357, 39.932397
车公庄西, 6号线, 116.344082, 39.932466
白石桥南, 6号线, 116.325680, 39.933022
花园桥, 6号线, 116.310683, 39.932340
慈寿寺, 6号线, 116.295467, 39.933268
海淀五路居, 6号线, 116.276531, 39.932584
田村, 6号线, 116.252914, 39.929503
廖公庄, 6号线, 116.227292, 39.932422
西黄村, 6号线, 116.206932, 39.933605
杨庄, 6号线, 116.187004, 39.927850
金安桥, 6号线, 116.163167, 39.923620
花庄, 7号线, 116.695495, 39.856722
高楼金, 7号线, 116.684340, 39.863154
群芳, 7号线, 116.670792, 39.863515
万盛东, 7号线, 116.657379, 39.863491
万盛西, 7号线, 116.632160, 39.863328
黑庄户, 7号线, 116.599119, 39.858725
郎辛庄, 7号线, 116.569826, 39.856496
黄厂, 7号线, 116.553759, 39.848979
焦化厂, 7号线, 116.537247, 39.855488
双合, 7号线, 116.526836, 39.859691
垡头, 7号线, 116.511821, 39.860728
欢乐谷景区, 7号线, 116.500067, 39.866505
南楼梓庄, 7号线, 116.501084, 39.874578
化工, 7号线, 116.503439, 39.887369
百子湾, 7号线, 116.497768, 39.892530
大郊亭, 7号线, 116.487935, 39.893183
九龙山, 7号线, 116.478695, 39.893222
双井, 7号线, 116.461834, 39.893512
广渠门外, 7号线, 116.448998, 39.893648
广渠门内, 7号线, 116.433877, 39.893673
磁器口, 7号线, 116.419940, 39.893172
桥湾, 7号线, 116.408464, 39.892725
珠市口, 7号线, 116.398104, 39.891267
虎坊桥, 7号线, 116.384596, 39.889486
菜市口, 7号线, 116.374425, 39.889296
广安门内, 7号线, 116.358239, 39.889418
达官营, 7号线, 116.336455, 39.889884
湾子, 7号线, 116.327753, 39.889954
北京西站, 7号线, 116.321218, 39.894706
中国美术馆, 8号线, 116.410803, 39.923705
南锣鼓巷, 8号线, 116.404192, 39.933848
什刹海, 8号线, 116.396219, 39.937583
鼓楼大街, 8号线, 116.393776, 39.948972
安德里北街, 8号线, 116.395145, 39.957227
安华桥, 8号线, 116.394655, 39.968507
北土城, 8号线, 116.394193, 39.976953
奥体中心, 8号线, 116.393759, 39.985837
奥林匹克公园, 8号线, 116.391758, 40.002207
森林公园南门, 8号线, 116.392600, 40.010122
林萃桥, 8号线, 116.372998, 40.021906
永泰庄, 8号线, 116.354580, 40.037728
西小口, 8号线, 116.351644, 40.046873
育新, 8号线, 116.347328, 40.060039
霍营, 8号线, 116.360286, 40.071857
回龙观东大街, 8号线, 116.363025, 40.081175
平西府, 8号线, 116.350425, 40.090607
育知路, 8号线, 116.326992, 40.087863
朱辛庄, 8号线, 116.313698, 40.104297
珠市口, 8号线南段, 116.398104, 39.891267
天桥, 8号线南段, 116.398712, 39.881920
永定门外, 8号线南段, 116.399369, 39.867435
木樨园, 8号线南段, 116.399839, 39.859262
海户屯, 8号线南段, 116.400301, 39.851805
大红门南, 8号线南段, 116.401045, 39.836715
和义, 8号线南段, 116.402073, 39.814838
东高地, 8号线南段, 116.409427, 39.805074
火箭万源, 8号线南段, 116.418627, 39.799287
五福堂, 8号线南段, 116.423903, 39.785046
德茂, 8号线南段, 116.441617, 39.772709
瀛海, 8号线南段, 116.448958, 39.760694
郭公庄, 9号线, 116.301889, 39.814322
丰台科技园, 9号线, 116.297176, 39.825233
科怡路, 9号线, 116.297432, 39.832480
丰台南路, 9号线, 116.296748, 39.840444
丰台东大街, 9号线, 116.293857, 39.855111
七里庄, 9号线, 116.294292, 39.866773
六里桥, 9号线, 116.302808, 39.880239
六里桥东, 9号线, 116.315142, 39.886886
北京西站, 9号线, 116.321218, 39.894706
军事博物馆, 9号线, 116.321459, 39.907422
白堆子, 9号线, 116.325762, 39.923818
白石桥南, 9号线, 116.325680, 39.933022
国家图书馆, 9号线, 116.325190, 39.943114
巴沟, 10号线, 116.293727, 39.974179
苏州街, 10号线, 116.306332, 39.975642
海淀黄庄, 10号线, 116.317564, 39.975996
知春里, 10号线, 116.328709, 39.976334
知春路, 10号线, 116.339960, 39.976476
西土城, 10号线, 116.354098, 39.976549
牡丹园, 10号线, 116.369844, 39.976603
健德门, 10号线, 116.381353, 39.976723
北土城, 10号线, 116.394193, 39.976953
安贞门, 10号线, 116.405954, 39.977005
惠新西街南口, 10号线, 116.417537, 39.977121
芍药居, 10号线, 116.435914, 39.977636
太阳宫, 10号线, 116.447469, 39.972678
三元桥, 10号线, 116.456997, 39.961508
亮马桥, 10号线, 116.461794, 39.949415
农业展览馆, 10号线, 116.461724, 39.941344
团结湖, 10号线, 116.461806, 39.933747
呼家楼, 10号线, 116.461618, 39.923337
金台夕照, 10号线, 116.461743, 39.916838
国贸, 10号线, 116.461841, 39.909104
双井, 10号线, 116.461834, 39.893512
劲松, 10号线, 116.461325, 39.884387
潘家园, 10号线, 116.460926, 39.875387
十里河, 10号线, 116.457983, 39.866417
分钟寺, 10号线, 116.453976, 39.852227
成寿寺, 10号线, 116.447531, 39.845874
宋家庄, 10号线, 116.428368, 39.845849
石榴庄, 10号线, 116.414103, 39.845905
大红门, 10号线, 116.399154, 39.845383
角门东, 10号线, 116.385649, 39.845135
角门西, 10号线, 116.371154, 39.845850
草桥, 10号线, 116.351387, 39.845869
纪家庙, 10号线, 116.333381, 39.844433
首经贸, 10号线, 116.320202, 39.844463
丰台站, 10号线, 116.304540, 39.849639
泥洼, 10号线, 116.304173, 39.858609
西局, 10号线, 116.303819, 39.866770
六里桥, 10号线, 116.302808, 39.880239
莲花桥, 10号线, 116.310347, 39.897867
公主坟, 10号线, 116.309919, 39.907469
西钓鱼台, 10号线, 116.298064, 39.923481
慈寿寺, 10号线, 116.295467, 39.933268
车道沟, 10号线, 116.293818, 39.947923
长春桥, 10号线, 116.294255, 39.958527
火器营, 10号线, 116.289058, 39.965938
西直门, 13号线, 116.355426, 39.940474
大钟寺, 13号线, 116.345139, 39.966612
知春路, 13号线, 116.339960, 39.976476
五道口, 13号线, 116.337742, 39.992894
上地, 13号线, 116.320193, 40.033007
清河站, 13号线, 116.314797, 40.041090
西二旗, 13号线, 116.306295, 40.053034
龙泽, 13号线, 116.319429, 40.070882
回龙观, 13号线, 116.336116, 40.070800
霍营, 13号线, 116.360286, 40.071857
立水桥, 13号线, 116.412350, 40.053032
北苑, 13号线, 116.434518, 40.042997
望京西, 13号线, 116.449884, 39.995724
芍药居, 13号线, 116.435914, 39.977636
光熙门, 13号线, 116.431761, 39.968337
柳芳, 13号线, 116.432728, 39.958157
东直门, 13号线, 116.435842, 39.941626
善各庄, 14号线东段, 116.478195, 40.027160
来广营, 14号线东段, 116.466994, 40.020588
东湖渠, 14号线东段, 116.467412, 40.010670
望京, 14号线东段, 116.469409, 39.998521
阜通, 14号线东段, 116.471740, 39.991699
望京南, 14号线东段, 116.481634, 39.984634
将台, 14号线东段, 116.489496, 39.971109
东风北桥, 14号线东段, 116.485919, 39.958375
枣营, 14号线东段, 116.474947, 39.944132
朝阳公园, 14号线东段, 116.478291, 39.933492
金台路, 14号线东段, 116.478115, 39.923556
大望路, 14号线东段, 116.475783, 39.908287
九龙山, 14号线东段, 116.478695, 39.893222
平乐园, 14号线东段, 116.477307, 39.885275
北工大西门, 14号线东段, 116.477319, 39.875445
十里河, 14号线东段, 116.457983, 39.866417
方庄, 14号线东段, 116.440244, 39.865868
蒲黄榆, 14号线东段, 116.423720, 39.865621
景泰, 14号线东段, 116.411027, 39.865255
永定门外, 14号线东段, 116.399369, 39.867435
北京南站, 14号线东段, 116.378963, 39.865029
西局, 14号线西段, 116.303819, 39.866770
七里庄, 14号线西段, 116.294292, 39.866773
大井, 14号线西段, 116.276061, 39.865226
郭庄子, 14号线西段, 116.253068, 39.864841
大瓦窑, 14号线西段, 116.240480, 39.859470
园博园, 14号线西段, 116.201643, 39.861328
张郭庄, 14号线西段, 116.187193, 39.858100
俸伯, 15号线, 116.684732, 40.132573
顺义, 15号线, 116.657023, 40.129994
石门, 15号线, 116.641117, 40.129802
南法信, 15号线, 116.609535, 40.128478
后沙峪, 15号线, 116.564211, 40.114127
花梨坎, 15号线, 116.557593, 40.084436
国展, 15号线, 116.555127, 40.070030
孙河, 15号线, 116.534700, 40.045113
马泉营, 15号线, 116.503480, 40.033721
崔各庄, 15号线, 116.492968, 40.022201
望京东, 15号线, 116.487105, 40.003200
望京, 15号线, 116.469409, 39.998521
望京西, 15号线, 116.449884, 39.995724
关庄, 15号线, 116.430947, 40.001134
大屯路东, 15号线, 116.417377, 40.003841
安立路, 15号线, 116.407845, 40.002619
奥林匹克公园, 15号线, 116.391758, 40.002207
北沙滩, 15号线, 116.368143, 40.001492
六道口, 15号线, 116.352670, 40.000958
清华东路西口, 15号线, 116.339530, 40.000673
北安河, 16号线, 116.130428, 40.068128
温阳路, 16号线, 116.161361, 40.068516
稻香湖路, 16号线, 116.188145, 40.068936
屯佃, 16号线, 116.215850, 40.068454
永丰, 16号线, 116.238481, 40.071868
永丰南, 16号线, 116.248154, 40.065575
西北旺, 16号线, 116.257923, 40.048703
马连洼, 16号线, 116.272520, 40.032637
农大南路, 16号线, 116.282272, 40.021398
西苑, 16号线, 116.290908, 39.998258
万泉河桥, 16号线, 116.300157, 39.985067
苏州桥, 16号线, 116.308092, 39.962052
万寿寺, 16号线, 116.309904, 39.947773
国家图书馆, 16号线, 116.325190, 39.943114
甘家口, 16号线, 116.334534, 39.923392
四惠, 八通线, 116.495456, 39.908749
四惠东, 八通线, 116.515664, 39.908495
高碑店, 八通线, 116.531421, 39.909448
传媒大学, 八通线, 116.554639, 39.909215
双桥, 八通线, 116.576709, 39.910139
管庄, 八通线, 116.599002, 39.909090
八里桥, 八通线, 116.618658, 39.906121
通州北苑, 八通线, 116.637252, 39.903864
果园, 八通线, 116.646606, 39.893393
九棵树, 八通线, 116.657533, 39.890278
梨园, 八通线, 116.668720, 39.883677
临河里, 八通线, 116.678811, 39.875496
土桥, 八通线, 116.686349, 39.871926
花庄, 八通线, 116.695495, 39.856722
昌平西山口, 昌平线, 116.195371, 40.244624
十三陵景区, 昌平线, 116.207729, 40.240255
昌平, 昌平线, 116.233590, 40.220550
昌平东关, 昌平线, 116.262059, 40.221726
北邵洼, 昌平线, 116.281949, 40.222001
南邵, 昌平线, 116.287534, 40.207492
沙河高教园, 昌平线, 116.280465, 40.164666
沙河, 昌平线, 116.288865, 40.148278
巩华城, 昌平线, 116.293979, 40.130900
朱辛庄, 昌平线, 116.313698, 40.104297
生命科学园, 昌平线, 116.294230, 40.094790
西二旗, 昌平线, 116.306295, 40.053034
草桥, 大兴国际机场线, 116.351387, 39.845869
大兴新城, 大兴国际机场线, 116.365522, 39.735583
大兴机场, 大兴国际机场线, 116.416725, 39.511375
阎村东, 房山线, 116.100817, 39.729028
苏庄, 房山线, 116.125306, 39.723188
良乡南关, 房山线, 116.140804, 39.723202
良乡大学城西, 房山线, 116.156282, 39.723157
良乡大学城, 房山线, 116.176541, 39.723159
良乡大学城北, 房山线, 116.183480, 39.729906
广阳城, 房山线, 116.184985, 39.747930
篱笆房, 房山线, 116.189486, 39.760636
长阳, 房山线, 116.212692, 39.763871
稻田, 房山线, 116.218840, 39.794885
大葆台, 房山线, 116.291681, 39.807810
郭公庄, 房山线, 116.301889, 39.814322
白盆窑, 房山线, 116.313391, 39.819590
花乡东桥, 房山线, 116.320160, 39.829272
首经贸, 房山线, 116.320202, 39.844463
东管头南, 房山线, 116.321319, 39.852631
T3航站楼, 首都机场线, 116.615583, 40.052657
T2航站楼, 首都机场线, 116.592808, 40.079311
三元桥, 首都机场线, 116.456997, 39.961508
东直门, 首都机场线, 116.435842, 39.941626
巴沟, 西郊线, 116.293727, 39.974179
颐和园西门, 西郊线, 116.263248, 39.985697
茶棚, 西郊线, 116.248100, 39.982113
万安, 西郊线, 116.231977, 39.984001
植物园, 西郊线, 116.214853, 39.993582
香山, 西郊线, 116.204491, 39.994056
阎村东, 燕房线, 116.100817, 39.729028
紫草坞, 燕房线, 116.086720, 39.724606
阎村, 燕房线, 116.080165, 39.716731
星城, 燕房线, 116.061370, 39.713681
大石河东, 燕房线, 116.039906, 39.709893
马各庄, 燕房线, 116.016606, 39.705103
饶乐府, 燕房线, 116.006103, 39.701471
房山城关, 燕房线, 115.989599, 39.706061
燕山, 燕房线, 115.973395, 39.719615
宋家庄, 亦庄线, 116.428368, 39.845849
肖村, 亦庄线, 116.448364, 39.834217
小红门, 亦庄线, 116.459226, 39.827951
旧宫, 亦庄线, 116.460789, 39.806910
亦庄桥, 亦庄线, 116.480307, 39.803011
亦庄文化园, 亦庄线, 116.490632, 39.806890
万源街, 亦庄线, 116.505403, 39.802971
荣京东街, 亦庄线, 116.513321, 39.793189
荣昌东街, 亦庄线, 116.521688, 39.782832
同济南路, 亦庄线, 116.539901, 39.772962
经海路, 亦庄线, 116.562321, 39.783673
次渠南, 亦庄线, 116.581357, 39.795118
次渠, 亦庄线, 116.591502, 39.803500
亦庄火车站, 亦庄线, 116.601913, 39.812607
